{"type":"FeatureCollection","features":[{"type":"Feature","properties":{"labelFor":"north-africa"},"geometry":{"type":"Point","coordinates":[1.9906297977483505,18.777951564491875]}},{"type":"Feature","properties":{"labelFor":"western-united-states"},"geometry":{"type":"Point","coordinates":[-113.22776211524874,40.76695800101489]}},{"type":"Feature","properties":{"labelFor":"ontario"},"geometry":{"type":"Point","coordinates":[-101.59730782731465,54.66723799540492]}},{"type":"Feature","properties":{"labelFor":"egyptian-region"},"geometry":{"type":"Point","coordinates":[22.729224447942467,26.93782084411793]}},{"type":"Feature","properties":{"labelFor":"argentina"},"geometry":{"type":"Point","coordinates":[-65.33207791082204,-38.588965345494366]}},{"type":"Feature","properties":{"labelFor":"eastern-australia"},"geometry":{"type":"Point","coordinates":[150.93621373354893,-29.83307051504285]}},{"type":"Feature","properties":{"labelFor":"congo"},"geometry":{"type":"Point","coordinates":[22.052405744731796,-0.7786425146123852]}},{"type":"Feature","properties":{"labelFor":"alaska"},"geometry":{"type":"Point","coordinates":[-154.56301883205026,63.94024752214019]}},{"type":"Feature","properties":{"labelFor":"ukraine"},"geometry":{"type":"Point","coordinates":[44.79258339792366,58.85693827971393]}},{"type":"Feature","properties":{"labelFor":"southern-africa"},"geometry":{"type":"Point","coordinates":[24.47344937450452,-20.015569658177448]}},{"type":"Feature","properties":{"labelFor":"iceland"},"geometry":{"type":"Point","coordinates":[-19.060593867517237,65.01018796922989]}},{"type":"Feature","properties":{"labelFor":"china"},"geometry":{"type":"Point","coordinates":[105.83225030845277,37.33462332000366]}},{"type":"Feature","properties":{"labelFor":"eastern-africa"},"geometry":{"type":"Point","coordinates":[35.5094316357821,7.186053195596462]}},{"type":"Feature","properties":{"labelFor":"mongolia"},"geometry":{"type":"Point","coordinates":[103.12205828233363,46.861179350055785]}},{"type":"Feature","properties":{"labelFor":"kamchatka"},"geometry":{"type":"Point","coordinates":[167,65]}},{"type":"Feature","properties":{"labelFor":"peru"},"geometry":{"type":"Point","coordinates":[-68.18111438675076,-14.20922890624339]}},{"type":"Feature","properties":{"labelFor":"alberta"},"geometry":{"type":"Point","coordinates":[-121.92624642390442,54.99894393637335]}},{"type":"Feature","properties":{"labelFor":"japan"},"geometry":{"type":"Point","coordinates":[134.50157768924893,38.60007056492129]}},{"type":"Feature","properties":{"labelFor":"india"},"geometry":{"type":"Point","coordinates":[80.17653540971901,22.584613868143684]}},{"type":"Feature","properties":{"labelFor":"central-america"},"geometry":{"type":"Point","coordinates":[-100.07570797415903,21.7623282777435]}},{"type":"Feature","properties":{"labelFor":"western-australia"},"geometry":{"type":"Point","coordinates":[125.99210871705401,-26.87639868335203]}},{"type":"Feature","properties":{"labelFor":"venezuela"},"geometry":{"type":"Point","coordinates":[-68.39732024346532,5.0060106388322065]}},{"type":"Feature","properties":{"labelFor":"scandanavia"},"geometry":{"type":"Point","coordinates":[18.447799919985588,63.900106732759326]}},{"type":"Feature","properties":{"labelFor":"greenland"},"geometry":{"type":"Point","coordinates":[-40.77431434047699,74.3567218949353]}},{"type":"Feature","properties":{"labelFor":"southern-europe"},"geometry":{"type":"Point","coordinates":[22.65044421696716,45.35622690975359]}},{"type":"Feature","properties":{"labelFor":"middle-east"},"geometry":{"type":"Point","coordinates":[50.398913414962024,29.70948727336946]}},{"type":"Feature","properties":{"labelFor":"irkutsk"},"geometry":{"type":"Point","coordinates":[112.88491459297552,54.94356480866993]}},{"type":"Feature","properties":{"labelFor":"indonesia"},"geometry":{"type":"Point","coordinates":[114.92177943633963,3.15459408845458]}},{"type":"Feature","properties":{"labelFor":"north-western-territory"},"geometry":{"type":"Point","coordinates":[-100.76149414791966,70.0946950802161]}},{"type":"Feature","properties":{"labelFor":"quebec"},"geometry":{"type":"Point","coordinates":[-73.27884474208396,51.75454971090047]}},{"type":"Feature","properties":{"labelFor":"brazil"},"geometry":{"type":"Point","coordinates":[-52.62079148832896,-10.649657421345022]}},{"type":"Feature","properties":{"labelFor":"eastern-united-states"},"geometry":{"type":"Point","coordinates":[-84.33945455196529,34.58910585030708]}},{"type":"Feature","properties":{"labelFor":"siam"},"geometry":{"type":"Point","coordinates":[101.20723353084209,15.851890425384733]}},{"type":"Feature","properties":{"labelFor":"new-guinea"},"geometry":{"type":"Point","coordinates":[140.98003685466404,-5.461310025284979]}},{"type":"Feature","properties":{"labelFor":"kazakhstan"},"geometry":{"type":"Point","coordinates":[66.28901521858269,45.87731016189047]}},{"type":"Feature","properties":{"labelFor":"northern-europe"},"geometry":{"type":"Point","coordinates":[16.70679419499211,52.350683889983564]}},{"type":"Feature","properties":{"labelFor":"yakutsk"},"geometry":{"type":"Point","coordinates":[129.91753618542563,66.06013775377421]}},{"type":"Feature","properties":{"labelFor":"western-europe"},"geometry":{"type":"Point","coordinates":[-1.09994248250958,43.487821049143044]}},{"type":"Feature","properties":{"labelFor":"madagascar"},"geometry":{"type":"Point","coordinates":[46.720744333406394,-19.18945683132001]}},{"type":"Feature","properties":{"labelFor":"siberia"},"geometry":{"type":"Point","coordinates":[85.3982124898171,64.02511102700676]}},{"type":"Feature","properties":{"labelFor":"great-britain"},"geometry":{"type":"Point","coordinates":[-4.410735285251385,54.14676068957311]}}]}
